time,x_airspeed_x,x_airspeed_z,x_airspeed_y,x_pitch,x_altitude,x_velocity_y,x_angular_rate_x,x_angular_rate_z,x_roll,x_yaw,elevator,thrust,aileron,rudder,airspeed_x,airspeed_z,airspeed_y,pitch,altitude,velocity_y,angular_rate_x,angular_rate_z,roll,yaw,fd_elevator,fd_thrust,fd_aileron,fd_rudder,ft_airspeed_x,ft_airspeed_z,ft_airspeed_y,ft_pitch,ft_altitude,ft_velocity_y,ft_angular_rate_x,ft_angular_rate_z,ft_roll,ft_yaw,TaskNumber,SecondaryInput,TaskSet,TaskRespondedTo
0.004112124,  4.17793E-07,    0.0224214,   0.00131075,            0,            0,            0, -8.08019E-05,  4.38155E-07,            0,            0, 0, 0, 0, 0,  4.17793E-07,    0.0224214,   0.00131075,            0,            0,            0, -8.08019E-05,  4.38155E-07,            0,            0,  -0.229296,          0, -0.0252975,          0, 0, 0, 0, 0, 0, 0, 0, 0, 0, 0, 0,-1,False,False
0.01411211,  1.57092E-06,    0.0527272,    0.0028761,  1.31075E-05, -0.000224214, -1.21807E-06, -3.34003E-05,  2.16831E-07, -8.08019E-07,  4.38155E-09, 0, 0, 0, 0,  1.57092E-06,    0.0527272,    0.0028761,  0.000751006, -0.000224214, -1.21807E-06, -3.34003E-05,  2.16831E-07, -4.62961E-05,  4.38155E-09, -0.275056,         0, 0.0145658,         0, 0, 0, 0, 0, 0, 0, 0, 0, 0, 0, 0,-1,False,False
0.02411211,  1.01959E-06,    0.0912605,   0.00467721,  4.18686E-05, -0.000715046, -2.07959E-06,  0.000133988, -6.76186E-07, -1.14202E-06,  6.54986E-09, 0, 0, 0, 0,  1.01959E-06,    0.0912605,   0.00467721,   0.00239889, -0.000715046, -2.07959E-06,  0.000133988, -6.76186E-07,  -6.5433E-05,  6.54986E-09, -0.317769,         0, 0.0522922,         0, 0, 0, 0, 0, 0, 0, 0, 0, 0, 0, 0,-1,False,False
0.0341121,  -4.1934E-06,      0.13822,   0.00668998,  8.86407E-05,  -0.00151126, -5.65102E-07,  0.000410689,   -2.236E-06,  1.97855E-07, -2.12007E-10, 0, 0, 0, 0,  -4.1934E-06,      0.13822,   0.00668998,   0.00507874,  -0.00151126, -5.65102E-07,  0.000410689,   -2.236E-06,  1.13363E-05, -2.12007E-10, -0.356499,         0, 0.0870851,         0, 0, 0, 0, 0, 0, 0, 0, 0, 0, 0, 0,-1,False,False
0.04411209,   -1.751E-05,     0.193658,   0.00888574,  0.000155541,  -0.00264704,  5.71519E-06,  0.000783623, -4.43978E-06,  4.30475E-06,  -2.2572E-08, 0, 0, 0, 0,   -1.751E-05,     0.193658,   0.00888574,   0.00891182,  -0.00264704,  5.71519E-06,  0.000783623, -4.43978E-06,  0.000246644,  -2.2572E-08, -0.390426,         0,  0.118154,         0, 0, 0, 0, 0, 0, 0, 0, 0, 0, 0, 0,-1,False,False
0.05411208, -4.28132E-05,      0.25748,     0.011232,  0.000244398,  -0.00415121,  1.94369E-05,   0.00123778, -7.24832E-06,   1.2141E-05, -6.69698E-08, 0, 0, 0, 0, -4.28132E-05,      0.25748,     0.011232,     0.014003,  -0.00415121,  1.94369E-05,   0.00123778, -7.24832E-06,  0.000695627, -6.69698E-08, -0.418859,         0,  0.144852,         0, 0, 0, 0, 0, 0, 0, 0, 0, 0, 0, 0,-1,False,False
0.06411207, -8.43744E-05,     0.329454,    0.0136934,  0.000356718,  -0.00604658,  4.34736E-05,   0.00175663, -1.06073E-05,  2.45188E-05, -1.39453E-07, 0, 0, 0, 0, -8.43744E-05,     0.329454,    0.0136934,    0.0204384,  -0.00604658,  4.34736E-05,   0.00175663, -1.06073E-05,   0.00140482, -1.39453E-07, -0.441261,         0,  0.166649,         0, 0, 0, 0, 0, 0, 0, 0, 0, 0, 0, 0,-1,False,False
0.07411206, -0.000146792,     0.409215,    0.0162326,  0.000493652,  -0.00834945,  8.08064E-05,   0.00232272, -1.44502E-05,  4.20851E-05, -2.45526E-07, 0, 0, 0, 0, -0.000146792,     0.409215,    0.0162326,    0.0282842,  -0.00834945,  8.08064E-05,   0.00232272, -1.44502E-05,    0.0024113, -2.45526E-07, -0.457255,         0,  0.183205,         0, 0, 0, 0, 0, 0, 0, 0, 0, 0, 0, 0,-1,False,False
0.08411217, -0.000234923,     0.496281,    0.0188112,  0.000655978,   -0.0110692,  0.000134436,   0.00291804, -1.86993E-05,  6.53123E-05, -3.90028E-07, 0, 0, 0, 0, -0.000234923,     0.496281,    0.0188112,    0.0375848,   -0.0110692,  0.000134436,   0.00291804, -1.86993E-05,   0.00374212, -3.90028E-07, -0.466634,         0,  0.194279,         0, 0, 0, 0, 0, 0, 0, 0, 0, 0, 0, 0,-1,False,False
0.09411216, -0.000353814,     0.590062,    0.0213909,   0.00084409,   -0.0142084,  0.000207297,   0.00352453, -2.32689E-05,  9.44927E-05, -5.77021E-07, 0, 0, 0, 0, -0.000353814,     0.590062,    0.0213909,    0.0483628,   -0.0142084,  0.000207297,   0.00352453, -2.32689E-05,   0.00541403, -5.77021E-07, -0.469363,         0,  0.199804,         0, 0, 0, 0, 0, 0, 0, 0, 0, 0, 0, 0,-1,False,False
0.1041121, -0.000508621,     0.689886,    0.0239343,     0.001058,   -0.0177625,  0.000302176,   0.00412466,  -2.8068E-05,  0.000129738, -8.09711E-07, 0, 0, 0, 0, -0.000508621,     0.689886,    0.0239343,    0.0606189,   -0.0177625,  0.000302176,   0.00412466,  -2.8068E-05,   0.00743344, -8.09711E-07, -0.46558,        0, 0.199878,        0, 0, 0, 0, 0, 0, 0, 0, 0, 0, 0, 0,-1,False,False
0.1141121,  -0.00070454,      0.79501,    0.0264061,   0.00129734,   -0.0217201,  0.000421641,   0.00470184, -3.30026E-05,  0.000170985, -1.09039E-06, 0, 0, 0, 0,  -0.00070454,      0.79501,    0.0264061,    0.0743323,   -0.0217201,  0.000421641,   0.00470184, -3.30026E-05,   0.00979669, -1.09039E-06, -0.455589,         0,  0.194733,         0, 0, 0, 0, 0, 0, 0, 0, 0, 0, 0, 0,-1,False,False
0.1241121, -0.000946728,     0.904647,    0.0287736,    0.0015614,   -0.0260636,  0.000567973,   0.00524085, -3.79794E-05,  0.000218003, -1.42042E-06, 0, 0, 0, 0, -0.000946728,     0.904647,    0.0287736,    0.0894619,   -0.0260636,  0.000567973,   0.00524085, -3.79794E-05,    0.0124906, -1.42042E-06, -0.439846,         0,   0.18475,         0, 0, 0, 0, 0, 0, 0, 0, 0, 0, 0, 0,-1,False,False
0.1341121,  -0.00124023,      1.01798,    0.0310077,   0.00184914,   -0.0307694,  0.000743121,   0.00572831, -4.29078E-05,  0.000270411, -1.80021E-06, 0, 0, 0, 0,  -0.00124023,      1.01798,    0.0310077,     0.105948,   -0.0307694,  0.000743121,   0.00572831, -4.29078E-05,    0.0154934, -1.80021E-06, -0.418947,         0,   0.17045,         0, 0, 0, 0, 0, 0, 0, 0, 0, 0, 0, 0,-1,False,False
0.1441121,  -0.00158993,       1.1342,    0.0330838,   0.00215922,   -0.0358086,  0.000948656,   0.00615291, -4.77027E-05,  0.000327695, -2.22929E-06, 0, 0, 0, 0,  -0.00158993,       1.1342,    0.0330838,     0.123714,   -0.0358086,  0.000948656,   0.00615291, -4.77027E-05,    0.0187755, -2.22929E-06, -0.393612,         0,  0.152429,         0, 0, 0, 0, 0, 0, 0, 0, 0, 0, 0, 0,-1,False,False
0.1541121,  -0.00200046,       1.2525,    0.0349818,   0.00249005,    -0.041148,   0.00118574,   0.00650574,  -5.2287E-05,  0.000389224, -2.70631E-06, 0, 0, 0, 0,  -0.00200046,       1.2525,    0.0349818,      0.14267,    -0.041148,   0.00118574,   0.00650574,  -5.2287E-05,    0.0223009, -2.70631E-06, -0.364656,         0,  0.131408,         0, 0, 0, 0, 0, 0, 0, 0, 0, 0, 0, 0,-1,False,False
0.1641121,  -0.00247617,      1.37213,    0.0366871,   0.00283987,   -0.0467506,   0.00145513,   0.00678054, -5.65943E-05,  0.000454281, -3.22918E-06, 0, 0, 0, 0,  -0.00247617,      1.37213,    0.0366871,     0.162713,   -0.0467506,   0.00145513,   0.00678054, -5.65943E-05,    0.0260284, -3.22918E-06, -0.332973,         0,  0.108184,         0, 0, 0, 0, 0, 0, 0, 0, 0, 0, 0, 0,-1,False,False
0.1741121,  -0.00302109,      1.49237,    0.0381903,   0.00320674,   -0.0525771,   0.00175715,   0.00697363, -6.05693E-05,  0.000522086, -3.79513E-06, 0, 0, 0, 0,  -0.00302109,      1.49237,    0.0381903,     0.183733,   -0.0525771,   0.00175715,   0.00697363, -6.05693E-05,    0.0299134, -3.79513E-06, -0.299504,         0, 0.0835466,         0, 0, 0, 0, 0, 0, 0, 0, 0, 0, 0, 0,-1,False,False
0.1841121,  -0.00363888,      1.61261,    0.0394878,   0.00358865,   -0.0585861,   0.00209174,   0.00708415, -6.41703E-05,  0.000591823, -4.40082E-06, 0, 0, 0, 0,  -0.00363888,      1.61261,    0.0394878,     0.205614,   -0.0585861,   0.00209174,   0.00708415, -6.41703E-05,    0.0339089, -4.40082E-06, -0.265214,         0, 0.0583572,         0, 0, 0, 0, 0, 0, 0, 0, 0, 0, 0, 0,-1,False,False
0.1941121,  -0.00433282,      1.73229,    0.0405814,   0.00398352,   -0.0647357,   0.00245844,    0.0071139, -6.73702E-05,  0.000662664, -5.04252E-06, 0, 0, 0, 0,  -0.00433282,      1.73229,    0.0405814,     0.228239,   -0.0647357,   0.00245844,    0.0071139, -6.73702E-05,    0.0379679, -5.04252E-06, -0.231063,         0, 0.0334555,         0, 0, 0, 0, 0, 0, 0, 0, 0, 0, 0, 0,-1,False,False
0.2041121,  -0.00510578,      1.85097,    0.0414783,   0.00438934,   -0.0709844,   0.00285646,   0.00706732, -7.01567E-05,  0.000733803, -5.71623E-06, 0, 0, 0, 0,  -0.00510578,      1.85097,    0.0414783,     0.251491,   -0.0709844,   0.00285646,   0.00706732, -7.01567E-05,    0.0420438, -5.71623E-06,  -0.197978,          0, 0.00966848,          0, 0, 0, 0, 0, 0, 0, 0, 0, 0, 0, 0,-1,False,False
0.2141122,  -0.00596025,      1.96832,    0.0421904,   0.00480412,   -0.0772917,   0.00328471,    0.0069511, -7.25318E-05,  0.000804476, -6.41779E-06, 0, 0, 0, 0,  -0.00596025,      1.96832,    0.0421904,     0.275256,   -0.0772917,   0.00328471,    0.0069511, -7.25318E-05,    0.0460931, -6.41779E-06,  -0.166832,          0, -0.0122848,          0, 0, 0, 0, 0, 0, 0, 0, 0, 0, 0, 0,-1,False,False
0.2241122,  -0.00689833,      2.08411,    0.0427345,   0.00522603,   -0.0836194,   0.00374187,   0.00677407, -7.45123E-05,  0.000873987, -7.14311E-06, 0, 0, 0, 0,  -0.00689833,      2.08411,    0.0427345,     0.299429,   -0.0836194,   0.00374187,   0.00677407, -7.45123E-05,    0.0500758, -7.14311E-06,  -0.138416,          0, -0.0317055,          0, 0, 0, 0, 0, 0, 0, 0, 0, 0, 0, 0,-1,False,False
0.2341121,  -0.00792176,      2.19823,    0.0431309,   0.00565337,   -0.0899322,   0.00422645,   0.00654686, -7.61288E-05,  0.000941728, -7.88823E-06, 0, 0, 0, 0,  -0.00792176,      2.19823,    0.0431309,     0.323914,   -0.0899322,   0.00422645,   0.00654686, -7.61288E-05,     0.053957, -7.88823E-06,  -0.113422,          0, -0.0480082,          0, 0, 0, 0, 0, 0, 0, 0, 0, 0, 0, 0,-1,False,False
0.2441121,  -0.00903192,      2.31069,    0.0434032,   0.00608468,   -0.0961981,   0.00473682,    0.0062815, -7.74241E-05,    0.0010072, -8.64952E-06, 0, 0, 0, 0,  -0.00903192,      2.31069,    0.0434032,     0.348626,   -0.0961981,   0.00473682,    0.0062815, -7.74241E-05,    0.0577081, -8.64952E-06, -0.0924223,          0, -0.0607105,          0, 0, 0, 0, 0, 0, 0, 0, 0, 0, 0, 0,-1,False,False
0.2541121,   -0.0102299,      2.42159,    0.0435774,   0.00651871,     -0.10239,   0.00527136,   0.00599098, -7.84517E-05,   0.00107001, -9.42376E-06, 0, 0, 0, 0,   -0.0102299,      2.42159,    0.0435774,     0.373495,     -0.10239,   0.00527136,   0.00599098, -7.84517E-05,    0.0613072, -9.42376E-06, -0.0758574,          0, -0.0694817,          0, 0, 0, 0, 0, 0, 0, 0, 0, 0, 0, 0,-1,False,False
0.2641121,   -0.0115166,      2.53113,    0.0436811,   0.00695449,    -0.108483,   0.00582842,   0.00568884, -7.92739E-05,   0.00112992, -1.02083E-05, 0, 0, 0, 0,   -0.0115166,      2.53113,    0.0436811,     0.398463,    -0.108483,   0.00582842,   0.00568884, -7.92739E-05,    0.0647397, -1.02083E-05, -0.0640264,          0,  -0.074093,          0, 0, 0, 0, 0, 0, 0, 0, 0, 0, 0, 0,-1,False,False
0.2741121,   -0.0128926,      2.63962,    0.0437426,    0.0073913,    -0.114461,   0.00640649,   0.00538876, -7.99597E-05,   0.00118681,  -1.1001E-05, 0, 0, 0, 0,   -0.0128926,      2.63962,    0.0437426,      0.42349,    -0.114461,   0.00640649,   0.00538876, -7.99597E-05,    0.0679992,  -1.1001E-05, -0.0570808,          0, -0.0744656,          0, 0, 0, 0, 0, 0, 0, 0, 0, 0, 0, 0,-1,False,False
0.2841121,   -0.0143583,      2.74742,    0.0437901,   0.00782872,     -0.12031,   0.00700418,   0.00510405, -8.05823E-05,    0.0012407, -1.18006E-05, 0, 0, 0, 0,   -0.0143583,      2.74742,    0.0437901,     0.448553,     -0.12031,   0.00700418,   0.00510405, -8.05823E-05,    0.0710867, -1.18006E-05, -0.0550236,          0, -0.0706582,          0, 0, 0, 0, 0, 0, 0, 0, 0, 0, 0, 0,-1,False,False
0.2941121,   -0.0159143,      2.85497,    0.0438508,   0.00826662,     -0.12602,   0.00762035,    0.0048473, -8.12168E-05,   0.00129174, -1.26064E-05, 0, 0, 0, 0,   -0.0159143,      2.85497,    0.0438508,     0.473643,     -0.12602,   0.00762035,    0.0048473, -8.12168E-05,    0.0740111, -1.26064E-05, -0.0577124,          0, -0.0628613,          0, 0, 0, 0, 0, 0, 0, 0, 0, 0, 0, 0,-1,False,False
0.3041121,   -0.0175608,      2.96274,    0.0439502,   0.00870513,    -0.131589,   0.00825409,   0.00462992, -8.19376E-05,   0.00134021, -1.34186E-05, 0, 0, 0, 0,   -0.0175608,      2.96274,    0.0439502,     0.498767,    -0.131589,   0.00825409,   0.00462992, -8.19376E-05,    0.0767884, -1.34186E-05,  -0.064867,          0, -0.0513946,          0, 0, 0, 0, 0, 0, 0, 0, 0, 0, 0, 0,-1,False,False
0.3141121,   -0.0192982,      3.07122,    0.0441113,   0.00914463,    -0.137016,   0.00890479,   0.00446177, -8.28155E-05,   0.00138651,  -1.4238E-05, 0, 0, 0, 0,   -0.0192982,      3.07122,    0.0441113,     0.523949,    -0.137016,   0.00890479,   0.00446177, -8.28155E-05,    0.0794412,  -1.4238E-05, -0.0760805,          0, -0.0367055,          0, 0, 0, 0, 0, 0, 0, 0, 0, 0, 0, 0,-1,False,False
0.3241121,   -0.0211269,      3.18094,    0.0443539,   0.00958575,    -0.142306,   0.00957218,   0.00435098, -8.39164E-05,   0.00143113, -1.50661E-05, 0, 0, 0, 0,   -0.0211269,      3.18094,    0.0443539,     0.549223,    -0.142306,   0.00957218,   0.00435098, -8.39164E-05,    0.0819976, -1.50661E-05, -0.0908341,          0,  -0.019307,          0, 0, 0, 0, 0, 0, 0, 0, 0, 0, 0, 0,-1,False,False
0.3341122,   -0.0230474,      3.29238,    0.0446944,    0.0100293,    -0.147467,    0.0102563,   0.00430357, -8.52984E-05,   0.00147464, -1.59053E-05, 0, 0, 0, 0,   -0.0230474,      3.29238,    0.0446944,     0.574636,    -0.147467,    0.0102563,   0.00430357, -8.52984E-05,    0.0844905, -1.59053E-05,  -0.108515,          0, 0.00017182,          0, 0, 0, 0, 0, 0, 0, 0, 0, 0, 0, 0,-1,False,False
0.3441122,   -0.0250604,      3.40602,    0.0451451,    0.0104762,    -0.152509,    0.0109576,   0.00432326, -8.70094E-05,   0.00151767, -1.67583E-05, 0, 0, 0, 0,   -0.0250604,      3.40602,    0.0451451,     0.600244,    -0.152509,    0.0109576,   0.00432326, -8.70094E-05,    0.0869563, -1.67583E-05, -0.128438,         0, 0.0210329,         0, 0, 0, 0, 0, 0, 0, 0, 0, 0, 0, 0,-1,False,False
0.3541121,   -0.0271669,       3.5223,     0.045714,    0.0109277,    -0.157445,    0.0116768,   0.00441154,  -8.9087E-05,   0.00156091, -1.76284E-05, 0, 0, 0, 0,   -0.0271669,       3.5223,     0.045714,      0.62611,    -0.157445,    0.0116768,   0.00441154,  -8.9087E-05,    0.0894333, -1.76284E-05, -0.149866,         0, 0.0425854,         0, 0, 0, 0, 0, 0, 0, 0, 0, 0, 0, 0,-1,False,False
0.3641121,   -0.0293678,      3.64159,    0.0464046,    0.0113848,     -0.16229,     0.012415,   0.00456743, -9.15562E-05,   0.00160502, -1.85192E-05, 0, 0, 0, 0,   -0.0293678,      3.64159,    0.0464046,     0.652302,     -0.16229,     0.012415,   0.00456743, -9.15562E-05,     0.091961, -1.85192E-05, -0.172032,         0, 0.0640725,         0, 0, 0, 0, 0, 0, 0, 0, 0, 0, 0, 0,-1,False,False
0.3741121,   -0.0316645,      3.76419,    0.0472162,    0.0118489,    -0.167056,    0.0131735,   0.00478766, -9.44286E-05,    0.0016507, -1.94348E-05, 0, 0, 0, 0,   -0.0316645,      3.76419,    0.0472162,      0.67889,    -0.167056,    0.0131735,   0.00478766, -9.44286E-05,    0.0945779, -1.94348E-05,  -0.19417,         0, 0.0847579,         0, 0, 0, 0, 0, 0, 0, 0, 0, 0, 0, 0,-1,False,False
0.3841121,   -0.0340585,      3.89034,    0.0481436,     0.012321,    -0.171758,    0.0139539,   0.00506666,  -9.7702E-05,   0.00169857, -2.03791E-05, 0, 0, 0, 0,   -0.0340585,      3.89034,    0.0481436,     0.705943,    -0.171758,    0.0139539,   0.00506666,  -9.7702E-05,     0.097321, -2.03791E-05, -0.215529,         0,  0.103919,         0, 0, 0, 0, 0, 0, 0, 0, 0, 0, 0, 0,-1,False,False
0.3941121,   -0.0365517,      4.02019,    0.0491777,    0.0128025,    -0.176409,     0.014758,    0.0053969, -0.000101361,   0.00174924, -2.13561E-05, 0, 0, 0, 0,   -0.0365517,      4.02019,    0.0491777,     0.733527,    -0.176409,     0.014758,    0.0053969, -0.000101361,     0.100224, -2.13561E-05, -0.235402,         0,  0.120927,         0, 0, 0, 0, 0, 0, 0, 0, 0, 0, 0, 0,-1,False,False
0.4041121,    -0.039146,       4.1538,    0.0503057,    0.0132942,     -0.18102,    0.0155878,   0.00576902, -0.000105377,   0.00180321, -2.23697E-05, 0, 0, 0, 0,    -0.039146,       4.1538,    0.0503057,     0.761704,     -0.18102,    0.0155878,   0.00576902, -0.000105377,     0.103316, -2.23697E-05, -0.253146,         0,  0.135178,         0, 0, 0, 0, 0, 0, 0, 0, 0, 0, 0, 0,-1,False,False
0.4141121,   -0.0418438,      4.29113,    0.0515117,    0.0137973,      -0.1856,    0.0164453,   0.00617213, -0.000109709,    0.0018609, -2.34235E-05, 0, 0, 0, 0,   -0.0418438,      4.29113,    0.0515117,     0.790527,      -0.1856,    0.0164453,   0.00617213, -0.000109709,     0.106622, -2.34235E-05, -0.268198,         0,  0.146162,         0, 0, 0, 0, 0, 0, 0, 0, 0, 0, 0, 0,-1,False,False
0.4241121,   -0.0446475,      4.43206,    0.0527772,    0.0143124,    -0.190154,    0.0173325,   0.00659424, -0.000114305,   0.00192262, -2.45206E-05, 0, 0, 0, 0,   -0.0446475,      4.43206,    0.0527772,     0.820041,    -0.190154,    0.0173325,   0.00659424, -0.000114305,     0.110158, -2.45206E-05, -0.280094,         0,  0.153499,         0, 0, 0, 0, 0, 0, 0, 0, 0, 0, 0, 0,-1,False,False
0.4341121,   -0.0475597,      4.57638,    0.0540817,    0.0148402,    -0.194686,    0.0182515,   0.00702256, -0.000119102,   0.00198856, -2.56636E-05, 0, 0, 0, 0,   -0.0475597,      4.57638,    0.0540817,      0.85028,    -0.194686,    0.0182515,   0.00702256, -0.000119102,     0.113936, -2.56636E-05, -0.288479,         0,  0.156895,         0, 0, 0, 0, 0, 0, 0, 0, 0, 0, 0, 0,-1,False,False
0.4441121,   -0.0505832,      4.72383,    0.0554036,     0.015381,    -0.199195,    0.0192042,   0.00744392, -0.000124032,   0.00205879, -2.68547E-05, 0, 0, 0, 0,   -0.0505832,      4.72383,    0.0554036,     0.881267,    -0.199195,    0.0192042,   0.00744392, -0.000124032,      0.11796, -2.68547E-05, -0.293117,         0,  0.156189,         0, 0, 0, 0, 0, 0, 0, 0, 0, 0, 0, 0,-1,False,False
0.4541121,   -0.0537208,      4.87405,    0.0567207,     0.015935,    -0.203674,    0.0201921,   0.00784518, -0.000129019,   0.00213323,  -2.8095E-05, 0, 0, 0, 0,   -0.0537208,      4.87405,    0.0567207,     0.913011,    -0.203674,    0.0201921,   0.00784518, -0.000129019,     0.122225,  -2.8095E-05, -0.293898,         0,   0.15135,         0, 0, 0, 0, 0, 0, 0, 0, 0, 0, 0, 0,-1,False,False
0.4641122,   -0.0569754,      5.02663,    0.0580109,    0.0165022,    -0.208115,    0.0212169,   0.00821364, -0.000133984,   0.00221168, -2.93852E-05, 0, 0, 0, 0,   -0.0569754,      5.02663,    0.0580109,     0.945509,    -0.208115,    0.0212169,   0.00821364, -0.000133984,      0.12672, -2.93852E-05, -0.290834,         0,  0.142466,         0, 0, 0, 0, 0, 0, 0, 0, 0, 0, 0, 0,-1,False,False
0.4741122,   -0.0603499,      5.18112,    0.0592532,    0.0170824,    -0.212505,    0.0222798,   0.00853743, -0.000138848,   0.00229381,  -3.0725E-05, 0, 0, 0, 0,   -0.0603499,      5.18112,    0.0592532,     0.978747,    -0.212505,    0.0222798,   0.00853743, -0.000138848,     0.131426,  -3.0725E-05, -0.284062,         0,  0.129753,         0, 0, 0, 0, 0, 0, 0, 0, 0, 0, 0, 0,-1,False,False
0.4841121,   -0.0638472,      5.33705,    0.0604281,    0.0176749,    -0.216827,    0.0233815,   0.00880587, -0.000143533,   0.00237919, -3.21135E-05, 0, 0, 0, 0,   -0.0638472,      5.33705,    0.0604281,       1.0127,    -0.216827,    0.0233815,   0.00880587, -0.000143533,     0.136317, -3.21135E-05, -0.273835,         0,  0.113546,         0, 0, 0, 0, 0, 0, 0, 0, 0, 0, 0, 0,-1,False,False
0.4941121,     -0.06747,      5.49392,     0.061518,    0.0182792,    -0.221061,    0.0245226,   0.00900984, -0.000147962,   0.00246725, -3.35488E-05, 0, 0, 0, 0,     -0.06747,      5.49392,     0.061518,      1.04732,    -0.221061,    0.0245226,   0.00900984, -0.000147962,     0.141363, -3.35488E-05,  -0.26051,         0, 0.0942987,         0, 0, 0, 0, 0, 0, 0, 0, 0, 0, 0, 0,-1,False,False
0.5041121,   -0.0712212,      5.65124,    0.0625084,    0.0188943,    -0.225185,    0.0257032,   0.00914194, -0.000152068,   0.00255735, -3.50284E-05, 0, 0, 0, 0,   -0.0712212,      5.65124,    0.0625084,      1.08257,    -0.225185,    0.0257032,   0.00914194, -0.000152068,     0.146525, -3.50284E-05, -0.244536,         0, 0.0725114,         0, 0, 0, 0, 0, 0, 0, 0, 0, 0, 0, 0,-1,False,False
0.5141121,   -0.0751031,      5.80853,    0.0633875,    0.0195194,    -0.229171,     0.026923,   0.00919679, -0.000155788,   0.00264877, -3.65491E-05, 0, 0, 0, 0,   -0.0751031,      5.80853,    0.0633875,      1.11838,    -0.229171,     0.026923,   0.00919679, -0.000155788,     0.151763, -3.65491E-05,  -0.22644,         0, 0.0488028,         0, 0, 0, 0, 0, 0, 0, 0, 0, 0, 0, 0,-1,False,False
0.5241121,  -0.0791182,     5.96534,   0.0641472,   0.0201533,   -0.232992,   0.0281813,  0.00917128, -0.00015907,  0.00274073, -3.8107E-05, 0, 0, 0, 0,  -0.0791182,     5.96534,   0.0641472,      1.1547,   -0.232992,   0.0281813,  0.00917128, -0.00015907,    0.157032, -3.8107E-05, -0.206806,         0, 0.0238527,         0, 0, 0, 0, 0, 0, 0, 0, 0, 0, 0, 0,-1,False,False
0.5341121,   -0.0832685,      6.12126,    0.0647827,    0.0207948,    -0.236619,    0.0294771,   0.00906441, -0.000161874,   0.00283245, -3.96977E-05, 0, 0, 0, 0,   -0.0832685,      6.12126,    0.0647827,      1.19145,    -0.236619,    0.0294771,   0.00906441, -0.000161874,     0.162287, -3.96977E-05,   -0.186255,           0, -0.00168154,           0, 0, 0, 0, 0, 0, 0, 0, 0, 0, 0, 0,-1,False,False
0.5441121,    -0.087556,      6.27592,    0.0652932,    0.0214426,    -0.240022,     0.030809,   0.00887751,  -0.00016417,   0.00292309, -4.13164E-05, 0, 0, 0, 0,    -0.087556,      6.27592,    0.0652932,      1.22857,    -0.240022,     0.030809,   0.00887751,  -0.00016417,     0.167481, -4.13164E-05,  -0.165426,          0, -0.0270719,          0, 0, 0, 0, 0, 0, 0, 0, 0, 0, 0, 0,-1,False,False
0.5541121,   -0.0919823,      6.42904,    0.0656813,    0.0220955,    -0.243171,     0.032175,   0.00861415, -0.000165941,   0.00301187, -4.29581E-05, 0, 0, 0, 0,   -0.0919823,      6.42904,    0.0656813,      1.26598,    -0.243171,     0.032175,   0.00861415, -0.000165941,     0.172567, -4.29581E-05,   -0.14495,          0, -0.0516172,          0, 0, 0, 0, 0, 0, 0, 0, 0, 0, 0, 0,-1,False,False
0.5641121,   -0.0965488,      6.58039,    0.0659532,    0.0227524,    -0.246036,    0.0335731,   0.00828007, -0.000167185,   0.00309801, -4.46175E-05, 0, 0, 0, 0,   -0.0965488,      6.58039,    0.0659532,      1.30361,    -0.246036,    0.0335731,   0.00828007, -0.000167185,     0.177503, -4.46175E-05,  -0.125437,          0, -0.0746289,          0, 0, 0, 0, 0, 0, 0, 0, 0, 0, 0, 0,-1,False,False
0.5741121,    -0.101257,      6.72982,    0.0661182,    0.0234119,    -0.248588,    0.0350011,    0.0078828, -0.000167911,   0.00318081, -4.62894E-05, 0, 0, 0, 0,    -0.101257,      6.72982,    0.0661182,       1.3414,    -0.248588,    0.0350011,    0.0078828, -0.000167911,     0.182247, -4.62894E-05,  -0.107449,          0, -0.0955209,          0, 0, 0, 0, 0, 0, 0, 0, 0, 0, 0, 0,-1,False,False
0.584112,    -0.106107,      6.87723,    0.0661884,    0.0240731,    -0.250801,    0.0364562,   0.00743161, -0.000168142,   0.00325964, -4.79685E-05, 0, 0, 0, 0,    -0.106107,      6.87723,    0.0661884,      1.37929,    -0.250801,    0.0364562,   0.00743161, -0.000168142,     0.186763, -4.79685E-05, -0.0914851,          0,  -0.113722,          0, 0, 0, 0, 0, 0, 0, 0, 0, 0, 0, 0,-1,False,False
0.5941122,      -0.1111,      7.02264,    0.0661782,     0.024735,    -0.252651,     0.037936,   0.00693722, -0.000167912,   0.00333395, -4.96499E-05, 0, 0, 0, 0,      -0.1111,      7.02264,    0.0661782,      1.41721,    -0.252651,     0.037936,   0.00693722, -0.000167912,     0.191021, -4.96499E-05, -0.0779633,          0,  -0.128753,          0, 0, 0, 0, 0, 0, 0, 0, 0, 0, 0, 0,-1,False,False
0.6041121,    -0.116237,       7.1661,    0.0661041,    0.0253967,    -0.254114,    0.0394375,   0.00641132, -0.000167265,   0.00340332,  -5.1329E-05, 0, 0, 0, 0,    -0.116237,       7.1661,    0.0661041,      1.45513,    -0.254114,    0.0394375,   0.00641132, -0.000167265,     0.194996,  -5.1329E-05, -0.0672102,          0,  -0.140269,          0, 0, 0, 0, 0, 0, 0, 0, 0, 0, 0, 0,-1,False,False
0.6141121,    -0.121518,      7.30775,    0.0659834,    0.0260578,    -0.255172,     0.040958,   0.00586636, -0.000166255,   0.00346744, -5.30017E-05, 0, 0, 0, 0,    -0.121518,      7.30775,    0.0659834,        1.493,    -0.255172,     0.040958,   0.00586636, -0.000166255,      0.19867, -5.30017E-05, -0.0594484,          0,  -0.147996,          0, 0, 0, 0, 0, 0, 0, 0, 0, 0, 0, 0,-1,False,False
0.6241121,    -0.126943,      7.44778,    0.0658342,    0.0267176,    -0.255809,    0.0424948,    0.0053151, -0.000164944,    0.0035261, -5.46642E-05, 0, 0, 0, 0,    -0.126943,      7.44778,    0.0658342,      1.53081,    -0.255809,    0.0424948,    0.0053151, -0.000164944,     0.202031, -5.46642E-05, -0.0547908,          0,   -0.15179,          0, 0, 0, 0, 0, 0, 0, 0, 0, 0, 0, 0,-1,False,False
0.6341121,    -0.132513,      7.58641,    0.0656742,    0.0273759,    -0.256012,    0.0440453,   0.00477025, -0.000163398,   0.00357925, -5.63137E-05, 0, 0, 0, 0,    -0.132513,      7.58641,    0.0656742,      1.56853,    -0.256012,    0.0440453,   0.00477025, -0.000163398,     0.205076, -5.63137E-05, -0.0532372,          0,  -0.151628,          0, 0, 0, 0, 0, 0, 0, 0, 0, 0, 0, 0,-1,False,False
0.6441121,    -0.138226,      7.72393,    0.0655209,    0.0280327,    -0.255771,    0.0456071,   0.00424408, -0.000161686,   0.00362695, -5.79477E-05, 0, 0, 0, 0,    -0.138226,      7.72393,    0.0655209,      1.60615,    -0.255771,    0.0456071,   0.00424408, -0.000161686,     0.207809, -5.79477E-05, -0.054675,         0, -0.147604,         0, 0, 0, 0, 0, 0, 0, 0, 0, 0, 0, 0,-1,False,False
0.6541121,    -0.144084,      7.86063,    0.0653899,    0.0286879,    -0.255079,    0.0471779,   0.00374806, -0.000159881,    0.0036694, -5.95645E-05, 0, 0, 0, 0,    -0.144084,      7.86063,    0.0653899,       1.6437,    -0.255079,    0.0471779,   0.00374806, -0.000159881,     0.210241, -5.95645E-05, -0.0588837,          0,  -0.139925,          0, 0, 0, 0, 0, 0, 0, 0, 0, 0, 0, 0,-1,False,False
0.6641121,    -0.150087,      7.99682,    0.0652951,    0.0293418,    -0.253933,    0.0487558,   0.00329249,  -0.00015805,   0.00370688, -6.11633E-05, 0, 0, 0, 0,    -0.150087,      7.99682,    0.0652951,      1.68116,    -0.253933,    0.0487558,   0.00329249,  -0.00015805,     0.212388, -6.11633E-05, -0.065543,         0, -0.128916,         0, 0, 0, 0, 0, 0, 0, 0, 0, 0, 0, 0,-1,False,False
0.6741121,    -0.156234,      8.13279,    0.0652481,    0.0299948,    -0.252331,    0.0503391,   0.00288632, -0.000156262,    0.0037398, -6.27438E-05, 0, 0, 0, 0,    -0.156234,      8.13279,    0.0652481,      1.71857,    -0.252331,    0.0503391,   0.00288632, -0.000156262,     0.214275, -6.27438E-05, -0.0742434,          0,  -0.114971,          0, 0, 0, 0, 0, 0, 0, 0, 0, 0, 0, 0,-1,False,False
0.6841121,    -0.162525,      8.26883,    0.0652576,    0.0306472,    -0.250274,    0.0519264,   0.00253678, -0.000154578,   0.00376866, -6.43065E-05, 0, 0, 0, 0,    -0.162525,      8.26883,    0.0652576,      1.75596,    -0.250274,    0.0519264,   0.00253678, -0.000154578,     0.215929, -6.43065E-05, -0.0845009,          0, -0.0985925,          0, 0, 0, 0, 0, 0, 0, 0, 0, 0, 0, 0,-1,False,False
0.6941121,    -0.168962,      8.40519,     0.065329,    0.0312998,    -0.247763,    0.0535167,   0.00224925, -0.000153052,   0.00379403, -6.58522E-05, 0, 0, 0, 0,    -0.168962,      8.40519,     0.065329,      1.79335,    -0.247763,    0.0535167,   0.00224925, -0.000153052,     0.217382, -6.58522E-05, -0.0957733,          0, -0.0803369,          0, 0, 0, 0, 0, 0, 0, 0, 0, 0, 0, 0,-1,False,False
0.7041121,    -0.175543,      8.54208,    0.0654645,    0.0319531,    -0.244801,    0.0551094,   0.00202708, -0.000151731,   0.00381652, -6.73828E-05, 0, 0, 0, 0,    -0.175543,      8.54208,    0.0654645,      1.83078,    -0.244801,    0.0551094,   0.00202708, -0.000151731,     0.218671, -6.73828E-05,  -0.107479,          0, -0.0608244,          0, 0, 0, 0, 0, 0, 0, 0, 0, 0, 0, 0,-1,False,False
0.714112,     -0.18227,      8.67966,    0.0656629,    0.0326077,    -0.241392,     0.056704,   0.00187165, -0.000150651,    0.0038368, -6.89001E-05, 0, 0, 0, 0,     -0.18227,      8.67966,    0.0656629,      1.86829,    -0.241392,     0.056704,   0.00187165, -0.000150651,     0.219832, -6.89001E-05,  -0.119017,          0, -0.0406558,          0, 0, 0, 0, 0, 0, 0, 0, 0, 0, 0, 0,-1,False,False
0.724112,    -0.189143,      8.81801,    0.0659193,    0.0332644,    -0.237539,    0.0583006,   0.00178225, -0.000149838,   0.00385551, -7.04066E-05, 0, 0, 0, 0,    -0.189143,      8.81801,    0.0659193,      1.90591,    -0.237539,    0.0583006,   0.00178225, -0.000149838,     0.220905, -7.04066E-05,  -0.129786,          0, -0.0204821,          0, 0, 0, 0, 0, 0, 0, 0, 0, 0, 0, 0,-1,False,False
0.734112,    -0.196163,      8.95715,    0.0662258,    0.0339236,    -0.233244,    0.0598994,    0.0017562, -0.000149306,   0.00387333, -7.19049E-05, 0, 0, 0, 0,    -0.196163,      8.95715,    0.0662258,      1.94368,    -0.233244,    0.0598994,    0.0017562, -0.000149306,     0.221926, -7.19049E-05,    -0.139208,            0, -0.000924654,            0, 0, 0, 0, 0, 0, 0, 0, 0, 0, 0, 0,-1,False,False
0.744112,   -0.203331,     9.09704,   0.0665714,   0.0345858,   -0.228508,   0.0615008,  0.00178893, -0.00014906,   0.0038909, -7.3398E-05, 0, 0, 0, 0,   -0.203331,     9.09704,   0.0665714,     1.98162,   -0.228508,   0.0615008,  0.00178893, -0.00014906,    0.222932, -7.3398E-05, -0.146745,         0, 0.0174174,         0, 0, 0, 0, 0, 0, 0, 0, 0, 0, 0, 0,-1,False,False
0.754112,    -0.210647,      9.23753,    0.0669423,    0.0352515,     -0.22333,    0.0631055,    0.0018743, -0.000149092,   0.00390879, -7.48886E-05, 0, 0, 0, 0,    -0.210647,      9.23753,    0.0669423,      2.01976,     -0.22333,    0.0631055,    0.0018743, -0.000149092,     0.223957, -7.48886E-05, -0.151922,         0, 0.0340411,         0, 0, 0, 0, 0, 0, 0, 0, 0, 0, 0, 0,-1,False,False
0.764112,    -0.218112,      9.37844,    0.0673226,     0.035921,    -0.217706,    0.0647145,   0.00200476, -0.000149384,   0.00392753, -7.63795E-05, 0, 0, 0, 0,    -0.218112,      9.37844,    0.0673226,      2.05812,    -0.217706,    0.0647145,   0.00200476, -0.000149384,     0.225031, -7.63795E-05, -0.154337,         0, 0.0484726,         0, 0, 0, 0, 0, 0, 0, 0, 0, 0, 0, 0,-1,False,False
0.774112,    -0.225728,      9.51948,    0.0676948,    0.0365942,     -0.21163,    0.0663288,   0.00217158, -0.000149909,   0.00394758, -7.78734E-05, 0, 0, 0, 0,    -0.225728,      9.51948,    0.0676948,      2.09669,     -0.21163,    0.0663288,   0.00217158, -0.000149909,     0.226179, -7.78734E-05, -0.153684,         0, 0.0603309,         0, 0, 0, 0, 0, 0, 0, 0, 0, 0, 0, 0,-1,False,False
0.7841122,    -0.233496,      9.66031,    0.0680401,    0.0372711,    -0.205093,    0.0679493,   0.00236535, -0.000150632,   0.00396929, -7.93725E-05, 0, 0, 0, 0,    -0.233496,      9.66031,    0.0680401,      2.13548,    -0.205093,    0.0679493,   0.00236535, -0.000150632,     0.227424, -7.93725E-05, -0.149758,         0, 0.0693602,         0, 0, 0, 0, 0, 0, 0, 0, 0, 0, 0, 0,-1,False,False
0.7941122,    -0.241416,      9.80052,    0.0683394,    0.0379515,    -0.198083,    0.0695773,   0.00257615,  -0.00015151,   0.00399295, -8.08788E-05, 0, 0, 0, 0,    -0.241416,      9.80052,    0.0683394,      2.17446,    -0.198083,    0.0695773,   0.00257615,  -0.00015151,     0.228779, -8.08788E-05, -0.142465,         0, 0.0753835,         0, 0, 0, 0, 0, 0, 0, 0, 0, 0, 0, 0,-1,False,False
0.8041122,     -0.24949,      9.93968,     0.068574,    0.0386349,    -0.190582,    0.0712136,   0.00279404, -0.000152497,   0.00401871, -8.23939E-05, 0, 0, 0, 0,     -0.24949,      9.93968,     0.068574,      2.21362,    -0.190582,    0.0712136,   0.00279404, -0.000152497,     0.230255, -8.23939E-05, -0.131831,         0, 0.0783463,         0, 0, 0, 0, 0, 0, 0, 0, 0, 0, 0, 0,-1,False,False
0.8141122,    -0.257719,      10.0773,    0.0687258,    0.0393207,    -0.182574,    0.0728594,   0.00300935, -0.000153543,   0.00404665, -8.39189E-05, 0, 0, 0, 0,    -0.257719,      10.0773,    0.0687258,      2.25291,    -0.182574,    0.0728594,   0.00300935, -0.000153543,     0.231856, -8.39189E-05, -0.117995,         0, 0.0783096,         0, 0, 0, 0, 0, 0, 0, 0, 0, 0, 0, 0,-1,False,False
0.8241122,    -0.266103,      10.2129,    0.0687784,    0.0400079,    -0.174036,    0.0745154,   0.00321307, -0.000154598,   0.00407674, -8.54543E-05, 0, 0, 0, 0,    -0.266103,      10.2129,    0.0687784,      2.29229,    -0.174036,    0.0745154,   0.00321307, -0.000154598,      0.23358, -8.54543E-05, -0.101214,         0, 0.0754445,         0, 0, 0, 0, 0, 0, 0, 0, 0, 0, 0, 0,-1,False,False
0.8341122,    -0.274643,      10.3459,    0.0687177,    0.0406957,    -0.164942,    0.0761824,   0.00339719, -0.000155614,   0.00410887, -8.70003E-05, 0, 0, 0, 0,    -0.274643,      10.3459,    0.0687177,      2.33169,    -0.164942,    0.0761824,   0.00339719, -0.000155614,     0.235421, -8.70003E-05, -0.0818517,          0,  0.0700272,          0, 0, 0, 0, 0, 0, 0, 0, 0, 0, 0, 0,-1,False,False
0.8441122,     -0.28334,      10.4759,     0.068532,    0.0413829,    -0.155267,    0.0778609,   0.00355497, -0.000156544,   0.00414284, -8.85564E-05, 0, 0, 0, 0,     -0.28334,      10.4759,     0.068532,      2.37106,    -0.155267,    0.0778609,   0.00355497, -0.000156544,     0.237367, -8.85564E-05, -0.0603706,          0,  0.0624377,          0, 0, 0, 0, 0, 0, 0, 0, 0, 0, 0, 0,-1,False,False
0.8541121,    -0.292194,      10.6023,    0.0682132,    0.0420682,    -0.144981,    0.0795512,   0.00368118, -0.000157348,   0.00417839, -9.01218E-05, 0, 0, 0, 0,    -0.292194,      10.6023,    0.0682132,      2.41033,    -0.144981,    0.0795512,   0.00368118, -0.000157348,     0.239404, -9.01218E-05, -0.0373182,          0,  0.0531211,          0, 0, 0, 0, 0, 0, 0, 0, 0, 0, 0, 0,-1,False,False
0.8641121,    -0.301205,      10.7248,    0.0677565,    0.0427503,    -0.134055,    0.0812535,   0.00377234, -0.000157993,    0.0042152, -9.16953E-05, 0, 0, 0, 0,    -0.301205,      10.7248,    0.0677565,      2.44941,    -0.134055,    0.0812535,   0.00377234, -0.000157993,     0.241513, -9.16953E-05, -0.0133108,          0,  0.0426072,          0, 0, 0, 0, 0, 0, 0, 0, 0, 0, 0, 0,-1,False,False
0.8741121,    -0.310372,       10.843,     0.067161,    0.0434279,    -0.122457,    0.0829677,   0.00382685, -0.000158455,   0.00425293, -9.32752E-05, 0, 0, 0, 0,    -0.310372,       10.843,     0.067161,      2.48824,    -0.122457,    0.0829677,   0.00382685, -0.000158455,     0.243675, -9.32752E-05, 0.0109845,         0, 0.0314711,         0, 0, 0, 0, 0, 0, 0, 0, 0, 0, 0, 0,-1,False,False
0.8841121,    -0.319696,      10.9565,    0.0664298,    0.0440995,    -0.110157,    0.0846937,   0.00384506,  -0.00015872,    0.0042912, -9.48598E-05, 0, 0, 0, 0,    -0.319696,      10.9565,    0.0664298,      2.52672,    -0.110157,    0.0846937,   0.00384506,  -0.00015872,     0.245867, -9.48598E-05, 0.0348706,         0, 0.0203261,         0, 0, 0, 0, 0, 0, 0, 0, 0, 0, 0, 0,-1,False,False
0.8941121,    -0.329174,      11.0652,    0.0655701,    0.0447638,   -0.0971255,     0.086431,   0.00382926, -0.000158783,   0.00432965,  -9.6447E-05, 0, 0, 0, 0,    -0.329174,      11.0652,    0.0655701,      2.56478,   -0.0971255,     0.086431,   0.00382926, -0.000158783,     0.248071,  -9.6447E-05,  0.0576415,          0, 0.00976925,          0, 0, 0, 0, 0, 0, 0, 0, 0, 0, 0, 0,-1,False,False
0.9041121,    -0.338808,      11.1688,    0.0645929,    0.0454195,   -0.0833338,    0.0881791,   0.00378364, -0.000158652,   0.00436794, -9.80348E-05, 0, 0, 0, 0,    -0.338808,      11.1688,    0.0645929,      2.60235,   -0.0833338,    0.0881791,   0.00378364, -0.000158652,     0.250265, -9.80348E-05,   0.0786045,           0, 0.000411218,           0, 0, 0, 0, 0, 0, 0, 0, 0, 0, 0, 0,-1,False,False
0.9141121,    -0.348594,      11.2674,     0.063513,    0.0460654,   -0.0687558,    0.0899374,   0.00371419, -0.000158346,   0.00440578, -9.96213E-05, 0, 0, 0, 0,    -0.348594,      11.2674,     0.063513,      2.63936,   -0.0687558,    0.0899374,   0.00371419, -0.000158346,     0.252432, -9.96213E-05,   0.0971021,           0, -0.00717435,           0, 0, 0, 0, 0, 0, 0, 0, 0, 0, 0, 0,-1,False,False
0.9241121,    -0.358531,       11.361,    0.0623486,    0.0467006,    -0.053368,    0.0917052,   0.00362843, -0.000157895,   0.00444292, -0.000101205, 0, 0, 0, 0,    -0.358531,       11.361,    0.0623486,      2.67575,    -0.053368,    0.0917052,   0.00362843, -0.000157895,      0.25456, -0.000101205,   0.112532,          0, -0.0124847,          0, 0, 0, 0, 0, 0, 0, 0, 0, 0, 0, 0,-1,False,False
0.9341121,    -0.368618,      11.4497,    0.0611207,    0.0473241,   -0.0371505,     0.093482,   0.00353523, -0.000157341,    0.0044792, -0.000102784, 0, 0, 0, 0,    -0.368618,      11.4497,    0.0611207,      2.71147,   -0.0371505,     0.093482,   0.00353523, -0.000157341,     0.256639, -0.000102784,    0.12437,          0, -0.0150714,          0, 0, 0, 0, 0, 0, 0, 0, 0, 0, 0, 0,-1,False,False
0.9441121,    -0.378853,      11.5339,    0.0598526,    0.0479353,    -0.020087,    0.0952672,   0.00344451, -0.000156734,   0.00451455, -0.000104357, 0, 0, 0, 0,    -0.378853,      11.5339,    0.0598526,      2.74649,    -0.020087,    0.0952672,   0.00344451, -0.000156734,     0.258665, -0.000104357,   0.132181,          0, -0.0145826,          0, 0, 0, 0, 0, 0, 0, 0, 0, 0, 0, 0,-1,False,False
0.9541121,    -0.389233,      11.6138,    0.0585697,    0.0485338,  -0.00216588,    0.0970603,   0.00336683, -0.000156132,     0.004549, -0.000105925, 0, 0, 0, 0,    -0.389233,      11.6138,    0.0585697,      2.78078,  -0.00216588,    0.0970603,   0.00336683, -0.000156132,     0.260638, -0.000105925,    0.13564,          0, -0.0107743,          0, 0, 0, 0, 0, 0, 0, 0, 0, 0, 0, 0,-1,False,False
0.964112,    -0.399756,      11.6898,    0.0572981,    0.0491195,    0.0166203,     0.098861,    0.0033131,   -0.0001556,   0.00458267, -0.000107486, 0, 0, 0, 0,    -0.399756,      11.6898,    0.0572981,      2.81434,    0.0166203,     0.098861,    0.0033131,   -0.0001556,     0.262568, -0.000107486,    0.134542,           0, -0.00350768,           0, 0, 0, 0, 0, 0, 0, 0, 0, 0, 0, 0,-1,False,False
0.974112,    -0.410421,      11.7626,    0.0560642,    0.0496925,     0.036274,     0.100669,   0.00329415, -0.000155208,    0.0046158, -0.000109042, 0, 0, 0, 0,    -0.410421,      11.7626,    0.0560642,      2.84717,     0.036274,     0.100669,   0.00329415, -0.000155208,     0.264466, -0.000109042,   0.128808,          0, 0.00722669,          0, 0, 0, 0, 0, 0, 0, 0, 0, 0, 0, 0,-1,False,False
0.984112,    -0.421223,      11.8326,    0.0548942,    0.0502531,    0.0567932,     0.102485,   0.00332028, -0.000155027,   0.00464874, -0.000110594, 0, 0, 0, 0,    -0.421223,      11.8326,    0.0548942,      2.87929,    0.0567932,     0.102485,   0.00332028, -0.000155027,     0.266353, -0.000110594,  0.118491,         0, 0.0213137,         0, 0, 0, 0, 0, 0, 0, 0, 0, 0, 0, 0,-1,False,False
0.994112,    -0.432163,      11.9005,     0.053813,    0.0508021,    0.0781708,      0.10431,   0.00340092, -0.000155128,   0.00468194, -0.000112144, 0, 0, 0, 0,    -0.432163,      11.9005,     0.053813,      2.91074,    0.0781708,      0.10431,   0.00340092, -0.000155128,     0.268256, -0.000112144,  0.103776,         0, 0.0384985,         0, 0, 0, 0, 0, 0, 0, 0, 0, 0, 0, 0,-1,False,False
1.004112,    -0.443236,      11.9669,    0.0528434,    0.0513402,     0.100396,     0.106143,    0.0035443, -0.000155579,   0.00471595, -0.000113695, 0, 0, 0, 0,    -0.443236,      11.9669,    0.0528434,      2.94158,     0.100396,     0.106143,    0.0035443, -0.000155579,     0.270204, -0.000113695, 0.0849759,         0, 0.0584456,         0, 0, 0, 0, 0, 0, 0, 0, 0, 0, 0, 0,-1,False,False
1.014112,    -0.454442,      12.0325,    0.0520058,    0.0518686,     0.123452,     0.107987,   0.00375699, -0.000156443,    0.0047514, -0.000115251, 0, 0, 0, 0,    -0.454442,      12.0325,    0.0520058,      2.97185,     0.123452,     0.107987,   0.00375699, -0.000156443,     0.272235, -0.000115251, 0.0625252,         0, 0.0806685,         0, 0, 0, 0, 0, 0, 0, 0, 0, 0, 0, 0,-1,False,False
1.024112,    -0.465778,       12.098,    0.0513174,    0.0523887,     0.147322,     0.109843,   0.00404362, -0.000157777,   0.00478897, -0.000116816, 0, 0, 0, 0,    -0.465778,       12.098,    0.0513174,      3.00165,     0.147322,     0.109843,   0.00404362, -0.000157777,     0.274388, -0.000116816, 0.036967,        0, 0.104573,        0, 0, 0, 0, 0, 0, 0, 0, 0, 0, 0, 0,-1,False,False
1.034112,    -0.477244,      12.1639,    0.0507915,    0.0529018,     0.171983,     0.111712,   0.00440677, -0.000159627,    0.0048294, -0.000118393, 0, 0, 0, 0,    -0.477244,      12.1639,    0.0507915,      3.03105,     0.171983,     0.111712,   0.00440677, -0.000159627,     0.276704, -0.000118393, 0.00893895,          0,   0.129535,          0, 0, 0, 0, 0, 0, 0, 0, 0, 0, 0, 0,-1,False,False
1.044112,    -0.488837,       12.231,    0.0504372,    0.0534098,     0.197411,     0.113598,   0.00484659, -0.000162026,   0.00487347,  -0.00011999, 0, 0, 0, 0,    -0.488837,       12.231,    0.0504372,      3.06015,     0.197411,     0.113598,   0.00484659, -0.000162026,     0.279229,  -0.00011999, -0.0208454,          0,    0.15481,          0, 0, 0, 0, 0, 0, 0, 0, 0, 0, 0, 0,-1,False,False
1.054112,    -0.500556,      12.2998,    0.0502595,    0.0539141,      0.22358,     0.115503,   0.00536079, -0.000164996,   0.00492194,  -0.00012161, 0, 0, 0, 0,    -0.500556,      12.2998,    0.0502595,      3.08905,      0.22358,     0.115503,   0.00536079, -0.000164996,     0.282006,  -0.00012161, -0.0516138,          0,   0.179624,          0, 0, 0, 0, 0, 0, 0, 0, 0, 0, 0, 0,-1,False,False
1.064112,    -0.512402,      12.3707,    0.0502583,    0.0544167,     0.250463,      0.11743,   0.00594448, -0.000168542,   0.00497554,  -0.00012326, 0, 0, 0, 0,    -0.512402,      12.3707,    0.0502583,      3.11785,     0.250463,      0.11743,   0.00594448, -0.000168542,     0.285078,  -0.00012326, -0.082562,         0,  0.203163,         0, 0, 0, 0, 0, 0, 0, 0, 0, 0, 0, 0,-1,False,False
1.074112,    -0.524374,      12.4442,    0.0504291,    0.0549193,     0.278034,     0.119382,   0.00659042, -0.000172655,   0.00503499, -0.000124945, 0, 0, 0, 0,    -0.524374,      12.4442,    0.0504291,      3.14664,     0.278034,     0.119382,   0.00659042, -0.000172655,     0.288484, -0.000124945, -0.112874,         0,  0.224669,         0, 0, 0, 0, 0, 0, 0, 0, 0, 0, 0, 0,-1,False,False
1.084112,    -0.536471,      12.5205,    0.0507628,    0.0554236,     0.306268,     0.121363,   0.00728891, -0.000177309,   0.00510089, -0.000126672, 0, 0, 0, 0,    -0.536471,      12.5205,    0.0507628,      3.17554,     0.306268,     0.121363,   0.00728891, -0.000177309,      0.29226, -0.000126672, -0.141748,         0,  0.243354,         0, 0, 0, 0, 0, 0, 0, 0, 0, 0, 0, 0,-1,False,False
1.094112,    -0.548695,         12.6,    0.0512459,    0.0559312,      0.33514,     0.123376,   0.00802803, -0.000182462,   0.00517378, -0.000128445, 0, 0, 0, 0,    -0.548695,         12.6,    0.0512459,      3.20462,      0.33514,     0.123376,   0.00802803, -0.000182462,     0.296436, -0.000128445, -0.168417,         0,  0.258486,         0, 0, 0, 0, 0, 0, 0, 0, 0, 0, 0, 0,-1,False,False
1.104112,    -0.561046,      12.6826,    0.0518609,    0.0564437,      0.36463,     0.125424,     0.008794, -0.000188055,   0.00525406,  -0.00013027, 0, 0, 0, 0,    -0.561046,      12.6826,    0.0518609,      3.23399,      0.36463,     0.125424,     0.008794, -0.000188055,     0.301036,  -0.00013027, -0.192176,         0,  0.269442,         0, 0, 0, 0, 0, 0, 0, 0, 0, 0, 0, 0,-1,False,False
1.114112,    -0.573525,      12.7683,     0.052587,    0.0569623,     0.394717,     0.127512,   0.00957138, -0.000194016,     0.005342,  -0.00013215, 0, 0, 0, 0,    -0.573525,      12.7683,     0.052587,       3.2637,     0.394717,     0.127512,   0.00957138, -0.000194016,     0.306074,  -0.00013215,  -0.2124,        0, 0.275657,        0, 0, 0, 0, 0, 0, 0, 0, 0, 0, 0, 0,-1,False,False
1.124112,    -0.586134,      12.8571,    0.0534003,    0.0574882,      0.42539,     0.129643,    0.0103435, -0.000200257,   0.00543772,  -0.00013409, 0, 0, 0, 0,    -0.586134,      12.8571,    0.0534003,      3.29383,      0.42539,     0.129643,    0.0103435, -0.000200257,     0.311558,  -0.00013409, -0.228565,         0,  0.276692,         0, 0, 0, 0, 0, 0, 0, 0, 0, 0, 0, 0,-1,False,False
1.134112,    -0.598873,      12.9488,    0.0542747,    0.0580222,     0.456635,      0.13182,    0.0110929, -0.000206681,   0.00554115, -0.000136093, 0, 0, 0, 0,    -0.598873,      12.9488,    0.0542747,      3.32443,     0.456635,      0.13182,    0.0110929, -0.000206681,     0.317485, -0.000136093, -0.240262,         0,  0.272242,         0, 0, 0, 0, 0, 0, 0, 0, 0, 0, 0, 0,-1,False,False
1.144112,   -0.611745,      13.043,   0.0551829,   0.0585649,    0.488449,    0.134046,   0.0118018, -0.00021318,  0.00565208, -0.00013816, 0, 0, 0, 0,   -0.611745,      13.043,   0.0551829,     3.35552,    0.488449,    0.134046,   0.0118018, -0.00021318,     0.32384, -0.00013816, -0.247212,         0,  0.262135,         0, 0, 0, 0, 0, 0, 0, 0, 0, 0, 0, 0,-1,False,False
1.154112,    -0.624752,      13.1392,    0.0560966,    0.0591167,      0.52083,     0.136323,    0.0124524, -0.000219637,    0.0057701, -0.000140292, 0, 0, 0, 0,    -0.624752,      13.1392,    0.0560966,      3.38714,      0.52083,     0.136323,    0.0124524, -0.000219637,     0.330602, -0.000140292, -0.249276,         0,  0.246356,         0, 0, 0, 0, 0, 0, 0, 0, 0, 0, 0, 0,-1,False,False
1.164112,    -0.637895,      13.2372,    0.0569879,    0.0596777,     0.553782,     0.138654,    0.0130278, -0.000225935,   0.00589462, -0.000142488, 0, 0, 0, 0,    -0.637895,      13.2372,    0.0569879,      3.41928,     0.553782,     0.138654,    0.0130278, -0.000225935,     0.337737, -0.000142488, -0.246458,         0,  0.225066,         0, 0, 0, 0, 0, 0, 0, 0, 0, 0, 0, 0,-1,False,False
1.174112,    -0.651177,      13.3362,    0.0578298,    0.0602476,     0.587314,      0.14104,    0.0135121, -0.000231951,    0.0060249, -0.000144747, 0, 0, 0, 0,    -0.651177,      13.3362,    0.0578298,      3.45193,     0.587314,      0.14104,    0.0135121, -0.000231951,     0.345201, -0.000144747, -0.238904,         0,  0.198529,         0, 0, 0, 0, 0, 0, 0, 0, 0, 0, 0, 0,-1,False,False
1.184112,    -0.664599,      13.4358,     0.058597,    0.0608259,      0.62144,     0.143482,    0.0138909, -0.000237568,   0.00616002, -0.000147067, 0, 0, 0, 0,    -0.664599,      13.4358,     0.058597,      3.48507,      0.62144,     0.143482,    0.0138909, -0.000237568,     0.352943, -0.000147067, -0.226904,         0,  0.167207,         0, 0, 0, 0, 0, 0, 0, 0, 0, 0, 0, 0,-1,False,False
1.194112,    -0.678163,      13.5353,     0.059267,    0.0614119,     0.656179,     0.145982,     0.014152, -0.000242669,   0.00629893, -0.000149442, 0, 0, 0, 0,    -0.678163,      13.5353,     0.059267,      3.51864,     0.656179,     0.145982,     0.014152, -0.000242669,     0.360902, -0.000149442, -0.210881,         0,  0.131693,         0, 0, 0, 0, 0, 0, 0, 0, 0, 0, 0, 0,-1,False,False
1.204112,    -0.691871,      13.6341,    0.0598204,    0.0620045,      0.69155,     0.148537,    0.0142857, -0.000247151,   0.00644045, -0.000151869, 0, 0, 0, 0,    -0.691871,      13.6341,    0.0598204,       3.5526,      0.69155,     0.148537,    0.0142857, -0.000247151,      0.36901, -0.000151869, -0.191379,         0, 0.0927399,         0, 0, 0, 0, 0, 0, 0, 0, 0, 0, 0, 0,-1,False,False
1.214112,    -0.705725,      13.7317,    0.0602416,    0.0626027,     0.727582,     0.151148,    0.0142849, -0.000250916,    0.0065833, -0.000154341, 0, 0, 0, 0,    -0.705725,      13.7317,    0.0602416,      3.58687,     0.727582,     0.151148,    0.0142849, -0.000250916,     0.377196, -0.000154341,  -0.16905,         0, 0.0511224,         0, 0, 0, 0, 0, 0, 0, 0, 0, 0, 0, 0,-1,False,False
1.224112,    -0.719726,      13.8275,    0.0605193,    0.0632052,       0.7643,     0.153813,    0.0141455, -0.000253883,   0.00672615,  -0.00015685, 0, 0, 0, 0,    -0.719726,      13.8275,    0.0605193,      3.62139,       0.7643,     0.153813,    0.0141455, -0.000253883,      0.38538,  -0.00015685,  -0.144632,          0, 0.00779743,          0, 0, 0, 0, 0, 0, 0, 0, 0, 0, 0, 0,-1,False,False
1.234112,    -0.733875,       13.921,     0.060647,    0.0638103,     0.801735,     0.156529,    0.0138668, -0.000255985,   0.00686761, -0.000159389, 0, 0, 0, 0,    -0.733875,       13.921,     0.060647,      3.65606,     0.801735,     0.156529,    0.0138668, -0.000255985,     0.393485, -0.000159389,  -0.118931,          0, -0.0362374,          0, 0, 0, 0, 0, 0, 0, 0, 0, 0, 0, 0,-1,False,False
1.244112,    -0.748173,      14.0117,     0.060623,    0.0644168,     0.839918,     0.159294,    0.0134515, -0.000257176,   0.00700628, -0.000161948, 0, 0, 0, 0,    -0.748173,      14.0117,     0.060623,      3.69081,     0.839918,     0.159294,    0.0134515, -0.000257176,      0.40143, -0.000161948, -0.0927964,          0, -0.0799074,          0, 0, 0, 0, 0, 0, 0, 0, 0, 0, 0, 0,-1,False,False
1.254112,     -0.76262,      14.0994,    0.0604506,     0.065023,     0.878879,     0.162104,    0.0129054, -0.000257426,   0.00714079,  -0.00016452, 0, 0, 0, 0,     -0.76262,      14.0994,    0.0604506,      3.72555,     0.878879,     0.162104,    0.0129054, -0.000257426,     0.409137,  -0.00016452, -0.0670939,          0,  -0.122222,          0, 0, 0, 0, 0, 0, 0, 0, 0, 0, 0, 0,-1,True,False
1.264112,    -0.777217,      14.1836,    0.0601378,    0.0656276,      0.91865,     0.164955,    0.0122377, -0.000256727,   0.00726985, -0.000167094, 0, 0, 0, 0,    -0.777217,      14.1836,    0.0601378,      3.76018,      0.91865,     0.164955,    0.0122377, -0.000256727,     0.416532, -0.000167094, -0.0426831,          0,  -0.162099,          0, 0, 0, 0, 0, 0, 0, 0, 0, 0, 0, 0,-1,True,False
1.274112,    -0.791963,      14.2644,    0.0596977,    0.0662289,     0.959258,     0.167843,    0.0114608, -0.000255092,   0.00739222, -0.000169662, 0, 0, 0, 0,    -0.791963,      14.2644,    0.0596977,      3.79464,     0.959258,     0.167843,    0.0114608, -0.000255092,     0.423543, -0.000169662, -0.0203897,          0,  -0.198505,          0, 0, 0, 0, 0, 0, 0, 0, 0, 0, 0, 0,-1,True,False
1.284112,    -0.806859,      14.3417,    0.0591475,    0.0668259,      1.00073,     0.170763,    0.0105898, -0.000252556,   0.00750683, -0.000172213, 0, 0, 0, 0,    -0.806859,      14.3417,    0.0591475,      3.82884,      1.00073,     0.170763,    0.0105898, -0.000252556,      0.43011, -0.000172213, -0.000981392,            0,    -0.230554,            0, 0, 0, 0, 0, 0, 0, 0, 0, 0, 0, 0,-1,True,False
1.294112,    -0.821903,      14.4154,     0.058508,    0.0674174,      1.04309,      0.17371,   0.00964236, -0.000249174,   0.00761273, -0.000174738, 0, 0, 0, 0,    -0.821903,      14.4154,     0.058508,      3.86273,      1.04309,      0.17371,   0.00964236, -0.000249174,     0.436177, -0.000174738, 0.0148559,         0, -0.257368,         0, 0, 0, 0, 0, 0, 0, 0, 0, 0, 0, 0,-1,True,False
1.304112,   -0.837094,     14.4859,   0.0578037,   0.0680025,     1.08636,    0.176678,  0.00863849, -0.00024502,  0.00770915, -0.00017723, 0, 0, 0, 0,   -0.837094,     14.4859,   0.0578037,     3.89625,     1.08636,    0.176678,  0.00863849, -0.00024502,    0.441702, -0.00017723, 0.0265378,         0, -0.278213,         0, 0, 0, 0, 0, 0, 0, 0, 0, 0, 0, 0,-1,True,False
1.314112,    -0.852433,      14.5534,    0.0570612,    0.0685805,      1.13054,     0.179663,   0.00759977, -0.000240188,   0.00779554,  -0.00017968, 0, 0, 0, 0,    -0.852433,      14.5534,    0.0570612,      3.92937,      1.13054,     0.179663,   0.00759977, -0.000240188,     0.446651,  -0.00017968, 0.0336022,         0, -0.292485,         0, 0, 0, 0, 0, 0, 0, 0, 0, 0, 0, 0,-1,True,False
1.324112,    -0.867917,      14.6183,    0.0563091,    0.0691511,      1.17566,      0.18266,   0.00654892, -0.000234786,   0.00787153, -0.000182082, 0, 0, 0, 0,    -0.867917,      14.6183,    0.0563091,      3.96207,      1.17566,      0.18266,   0.00654892, -0.000234786,     0.451006, -0.000182082, 0.0357224,         0,  -0.29976,         0, 0, 0, 0, 0, 0, 0, 0, 0, 0, 0, 0,-1,True,False
1.334112,    -0.883545,      14.6811,    0.0555768,    0.0697142,      1.22172,     0.185662,   0.00550933, -0.000228937,   0.00793702,  -0.00018443, 0, 0, 0, 0,    -0.883545,      14.6811,    0.0555768,      3.99433,      1.22172,     0.185662,   0.00550933, -0.000228937,     0.454758,  -0.00018443, 0.0327183,         0, -0.299751,         0, 0, 0, 0, 0, 0, 0, 0, 0, 0, 0, 0,-1,True,False
1.344112,    -0.899316,      14.7424,    0.0548937,      0.07027,      1.26871,     0.188667,   0.00450445, -0.000222774,   0.00799212, -0.000186719, 0, 0, 0, 0,    -0.899316,      14.7424,    0.0548937,      4.02617,      1.26871,     0.188667,   0.00450445, -0.000222774,     0.457915, -0.000186719, 0.0245636,         0, -0.292362,         0, 0, 0, 0, 0, 0, 0, 0, 0, 0, 0, 0,-1,True,False
1.354112,    -0.915228,      14.8027,    0.0542882,    0.0708189,      1.31664,     0.191669,   0.00355727, -0.000216438,   0.00803716, -0.000188947, 0, 0, 0, 0,    -0.915228,      14.8027,    0.0542882,      4.05762,      1.31664,     0.191669,   0.00355727, -0.000216438,     0.460495, -0.000188947,  0.011388,         0, -0.277661,         0, 0, 0, 0, 0, 0, 0, 0, 0, 0, 0, 0,-1,True,False
1.364112,    -0.931281,      14.8629,    0.0537871,    0.0713618,      1.36549,     0.194666,   0.00268969, -0.000210075,   0.00807273, -0.000191111, 0, 0, 0, 0,    -0.931281,      14.8629,    0.0537871,      4.08873,      1.36549,     0.194666,   0.00268969, -0.000210075,     0.462534, -0.000191111, -0.00652504,           0,   -0.255908,           0, 0, 0, 0, 0, 0, 0, 0, 0, 0, 0, 0,-1,True,False
1.374112,    -0.947473,      14.9236,    0.0534144,    0.0718997,      1.41525,     0.197653,     0.001922, -0.000203832,   0.00809963, -0.000193212, 0, 0, 0, 0,    -0.947473,      14.9236,    0.0534144,      4.11955,      1.41525,     0.197653,     0.001922, -0.000203832,     0.464075, -0.000193212, -0.028745,         0, -0.227531,         0, 0, 0, 0, 0, 0, 0, 0, 0, 0, 0, 0,-1,True,False
1.384112,    -0.963803,      14.9854,    0.0531909,    0.0724338,      1.46589,     0.200628,   0.00127228, -0.000197851,   0.00811885,  -0.00019525, 0, 0, 0, 0,    -0.963803,      14.9854,    0.0531909,      4.15015,      1.46589,     0.200628,   0.00127228, -0.000197851,     0.465176,  -0.00019525, -0.0547051,          0,  -0.193152,          0, 0, 0, 0, 0, 0, 0, 0, 0, 0, 0, 0,-1,True,False
1.394112,    -0.980271,      15.0491,    0.0531333,    0.0729657,       1.5174,      0.20359,  0.000756239, -0.000192271,   0.00813157, -0.000197229, 0, 0, 0, 0,    -0.980271,      15.0491,    0.0531333,      4.18063,       1.5174,      0.20359,  0.000756239, -0.000192271,     0.465905, -0.000197229, -0.0837178,          0,  -0.153459,          0, 0, 0, 0, 0, 0, 0, 0, 0, 0, 0, 0,-1,True,False
1.404112,    -0.996876,      15.1154,    0.0532535,     0.073497,      1.56976,     0.206537,  0.000386544, -0.000187221,   0.00813914, -0.000199152, 0, 0, 0, 0,    -0.996876,      15.1154,    0.0532535,      4.21107,      1.56976,     0.206537,  0.000386544, -0.000187221,     0.466338, -0.000199152, -0.114993,         0, -0.109344,         0, 0, 0, 0, 0, 0, 0, 0, 0, 0, 0, 0,-1,True,False
1.414112,     -1.01362,      15.1849,    0.0535588,    0.0740296,      1.62293,      0.20947,  0.000172487, -0.000182816,     0.008143, -0.000201024, 0, 0, 0, 0,     -1.01362,      15.1849,    0.0535588,      4.24158,      1.62293,      0.20947,  0.000172487, -0.000182816,      0.46656, -0.000201024,  -0.147659,          0, -0.0618233,          0, 0, 0, 0, 0, 0, 0, 0, 0, 0, 0, 0,-1,True,False
1.424112,      -1.0305,       15.258,    0.0540506,    0.0745652,      1.67688,     0.212389,  0.000120107, -0.000179159,   0.00814473, -0.000202852, 0, 0, 0, 0,      -1.0305,       15.258,    0.0540506,      4.27227,      1.67688,     0.212389,  0.000120107, -0.000179159,     0.466658, -0.000202852,  -0.180791,          0, -0.0118833,          0, 0, 0, 0, 0, 0, 0, 0, 0, 0, 0, 0,-1,True,False
1.434112,     -1.04752,      15.3353,    0.0547252,    0.0751057,      1.73159,     0.215295,  0.000231702, -0.000176335,   0.00814593, -0.000204644, 0, 0, 0, 0,     -1.04752,      15.3353,    0.0547252,      4.30324,      1.73159,     0.215295,  0.000231702, -0.000176335,     0.466727, -0.000204644,  -0.21343,         0, 0.0393258,         0, 0, 0, 0, 0, 0, 0, 0, 0, 0, 0, 0,-1,True,False
1.444112,     -1.06467,       15.417,    0.0555733,    0.0756529,      1.78703,     0.218192,  0.000505901, -0.000174408,   0.00814824, -0.000206407, 0, 0, 0, 0,     -1.06467,       15.417,    0.0555733,      4.33459,      1.78703,     0.218192,  0.000505901, -0.000174408,      0.46686, -0.000206407, -0.244616,         0, 0.0906621,         0, 0, 0, 0, 0, 0, 0, 0, 0, 0, 0, 0,-1,True,False
1.454112,     -1.08197,      15.5033,    0.0565803,    0.0762087,      1.84318,      0.22108,  0.000937586, -0.000173423,    0.0081533, -0.000208151, 0, 0, 0, 0,     -1.08197,      15.5033,    0.0565803,      4.36643,      1.84318,      0.22108,  0.000937586, -0.000173423,      0.46715, -0.000208151, -0.273413,         0,  0.140949,         0, 0, 0, 0, 0, 0, 0, 0, 0, 0, 0, 0,-1,True,False
1.464112,     -1.09941,      15.5944,    0.0577265,    0.0767745,          1.9,     0.223965,   0.00151841, -0.000173405,   0.00816268, -0.000209885, 0, 0, 0, 0,     -1.09941,      15.5944,    0.0577265,      4.39885,          1.9,     0.223965,   0.00151841, -0.000173405,     0.467687, -0.000209885, -0.298937,         0,  0.189157,         0, 0, 0, 0, 0, 0, 0, 0, 0, 0, 0, 0,-1,True,False
1.474112,     -1.11699,      15.6901,     0.058988,    0.0773517,      1.95749,     0.226849,   0.00223663, -0.000174354,   0.00817786, -0.000211619, 0, 0, 0, 0,     -1.11699,      15.6901,     0.058988,      4.43193,      1.95749,     0.226849,   0.00223663, -0.000174354,     0.468557, -0.000211619, -0.32038,        0, 0.234199,        0, 0, 0, 0, 0, 0, 0, 0, 0, 0, 0, 0,-1,True,False
1.484112,     -1.13472,      15.7904,    0.0603366,    0.0779416,      2.01563,     0.229739,   0.00307759, -0.000176252,   0.00820023, -0.000213363, 0, 0, 0, 0,     -1.13472,      15.7904,    0.0603366,      4.46573,      2.01563,     0.229739,   0.00307759, -0.000176252,     0.469839, -0.000213363, -0.337035,         0,  0.275115,         0, 0, 0, 0, 0, 0, 0, 0, 0, 0, 0, 0,-1,True,False
1.494112,      -1.1526,      15.8948,    0.0617411,     0.078545,       2.0744,     0.232638,   0.00402397, -0.000179059,   0.00823101, -0.000215125, 0, 0, 0, 0,      -1.1526,      15.8948,    0.0617411,       4.5003,       2.0744,     0.232638,   0.00402397, -0.000179059,     0.471602, -0.000215125, -0.348316,         0,  0.311029,         0, 0, 0, 0, 0, 0, 0, 0, 0, 0, 0, 0,-1,True,False
